{"meta":{"code":200},"data":[{"latitude":48.850045,"id":"257096820","longitude":2.289936,"name":"Bandito"},{"latitude":48.849900225,"id":"112840377","longitude":2.290078436,"name":"Bandito"},{"latitude":48.850058565,"id":"480110533","longitude":2.290177398,"name":"Roma"},{"latitude":48.850021975,"id":"328246065","longitude":2.290302899,"name":"Paris - Roma"},{"latitude":48.850239,"id":"80437182","longitude":2.289867,"name":"Kouriet couscous"},{"latitude":48.850212,"id":"129709757","longitude":2.289753,"name":"Laverie"},{"latitude":48.850064081,"id":"24854510","longitude":2.289603899,"name":"Cafet' d'Assas"},{"latitude":48.850248079,"id":"339748217","longitude":2.289810008,"name":"Les Saveurs Du Maroc"},{"latitude":48.850236,"id":"33691874","longitude":2.290314,"name":"Sushi Station"},{"latitude":48.850317736,"id":"250625743","longitude":2.290232241,"name":"Cimetiere P\u00e8re Lachaise"},{"latitude":48.850082398,"id":"340820150","longitude":2.290571327,"name":"Grenelle Tour Eiffel Paris"},{"latitude":48.85028756,"id":"5040749","longitude":2.290410003,"name":"Hotel Beaugrenelle Tour Eiffel ***"},{"latitude":48.85031199,"id":"473817675","longitude":2.290379433,"name":"Musee De Orsay"},{"latitude":48.850010922,"id":"351014424","longitude":2.289388711,"name":"Rue Rouelle"},{"latitude":48.850373844,"id":"145115068","longitude":2.290245027,"name":"Caf\u00e9 Michel"},{"latitude":48.850149,"id":"4766168","longitude":2.289424,"name":"Marche Dupleix"},{"latitude":48.849953366,"id":"173780820","longitude":2.289381157,"name":"Yves rocher"},{"latitude":48.849662172,"id":"387459415","longitude":2.290374525,"name":"Plaza Ath\u00e9n\u00e9"},{"latitude":48.850386773,"id":"453878445","longitude":2.290348908,"name":"Sushi Station"},{"latitude":48.8502628,"id":"369184463","longitude":2.2894347,"name":"BANDITO"}]}